{"historial":[{"nombre":"Valparaíso, Región de Valparaíso, Chile","lat":"-71.61636 °","lon":"-71.61636 °","desc":"nubes","temp":"13.02 °C","min":"12.02 °C","max":"17.67 °C","hum":"97%","fecha":"\u001b[32m16\u001b[39m\u001b[90m/\u001b[39m\u001b[32m8\u001b[39m\u001b[90m/\u001b[39m\u001b[32m2022\u001b[39m","hora":"\u001b[32m16\u001b[39m\u001b[90m:\u001b[39m\u001b[32m33\u001b[39m"},{"nombre":"Calama, Región de Antofagasta, Chile","lat":"-68.91667 °","lon":"-68.91667 °","desc":"cielo claro","temp":"22.16 °C","min":"22.16 °C","max":"22.16 °C","hum":"4%","fecha":"\u001b[32m16\u001b[39m\u001b[90m/\u001b[39m\u001b[32m8\u001b[39m\u001b[90m/\u001b[39m\u001b[32m2022\u001b[39m","hora":"\u001b[32m16\u001b[39m\u001b[90m:\u001b[39m\u001b[32m32\u001b[39m"},{"nombre":"Maipú, Región Metropolitana de Santiago, Chile","lat":"-70.76667 °","lon":"-70.76667 °","desc":"cielo claro","temp":"17.63 °C","min":"14.01 °C","max":"21.59 °C","hum":"59%","fecha":"\u001b[32m16\u001b[39m\u001b[90m/\u001b[39m\u001b[32m8\u001b[39m\u001b[90m/\u001b[39m\u001b[32m2022\u001b[39m","hora":"\u001b[32m16\u001b[39m\u001b[90m:\u001b[39m\u001b[32m32\u001b[39m"},{"nombre":"Renca, Región Metropolitana de Santiago, Chile","lat":"-70.73333 °","lon":"-70.73333 °","desc":"cielo claro","temp":"17.1 °C","min":"13.89 °C","max":"21.47 °C","hum":"59%","fecha":"\u001b[32m16\u001b[39m\u001b[90m/\u001b[39m\u001b[32m8\u001b[39m\u001b[90m/\u001b[39m\u001b[32m2022\u001b[39m","hora":"\u001b[32m16\u001b[39m\u001b[90m:\u001b[39m\u001b[32m32\u001b[39m"},{"nombre":"Antofagasta, Región de Antofagasta, Chile","lat":"-69.323094 °","lon":"-69.323094 °","desc":"nubes dispersas","temp":"21.93 °C","min":"21.93 °C","max":"21.93 °C","hum":"4%","fecha":"\u001b[32m16\u001b[39m\u001b[90m/\u001b[39m\u001b[32m8\u001b[39m\u001b[90m/\u001b[39m\u001b[32m2022\u001b[39m","hora":"\u001b[32m16\u001b[39m\u001b[90m:\u001b[39m\u001b[32m23\u001b[39m"}]}